stop_id,stop_code,stop_name,stop_desc,stop_lat,stop_lon,location_type,parent_station
4726949,,"BASTILLE - BEAUMARCHAIS","2 BOULEVARD BEAUMARCHAIS - 75111",48.853856485402765,2.369069554093801,0,
4726948,,"BASTILLE","RUE DE LYON - 75112",48.85239140153054,2.369545320283473,0,
4726946,,"GARE DE LYON","FACE 191 RUE DE BERCY - 75112",48.84397806224592,2.3731893823763586,0,
4726947,,"GARE DE LYON.","FACE 165 RUE DE BERCY - 75112",48.842665144499236,2.3755577341141434,0,
4726944,,"GARE DE LYON - VAN GOGH","205-207 RUE DE BERCY - 75112",48.84489527909312,2.3715287402401484,0,
4726945,,"GARE DE LYON","179 RUE DE BERCY - 75112",48.84369043264488,2.373284500119991,0,
4726942,,"GARE DE LYON - DIDEROT","3 RUE DE LYON - 75112",48.84612641829164,2.372047013071946,0,
4726943,,"GARE DE LYON - DIDEROT","FACE 23BIS BOULEVARD DIDEROT - 75112",48.84598203749001,2.3739805748450498,0,
4726940,,"LYON - LEDRU ROLLIN","41 RUE DE LYON - 75112",48.84870615152683,2.3709320650605292,0,
4726941,,"LYON - LEDRU ROLLIN","9-11 AVENUE DAUMESNIL - 75112",48.8488765289316,2.372266746924533,0,
4726938,,"BASTILLE - BEAUMARCHAIS","7 BOULEVARD BEAUMARCHAIS - 75104",48.85385657226886,2.3687426889970005,0,
4726937,,"PASTEUR - WAGNER","25 BOULEVARD BEAUMARCHAIS - 75104",48.85536654929761,2.3684167310968207,0,
4726939,,"BASTILLE","PLACE DE LA BASTILLE - 75104",48.85281401294961,2.3687965324803804,0,
4726933,,"JEAN-PIERRE TIMBAUD","23 BOULEVARD DU TEMPLE - 75103",48.86483101886425,2.365493632274414,0,
4726934,,"OBERKAMPF - FILLES DU CALVAIRE","11 BOULEVARD DES FILLES DU CALVAIRE - 75103",48.8621614526154,2.366786226916294,0,
4726935,,"SAINT-CLAUDE","97 BOULEVARD BEAUMARCHAIS - 75103",48.85986952926583,2.3673297601478707,0,
4726936,,"SAINT-GILLES - CHEMIN VERT","57 BOULEVARD BEAUMARCHAIS - 75103",48.85728098955349,2.367968412184262,0,
4726930,,"SQUARE DU TEMPLE - MAIRIE DU 3E - CARREAU DU TEMPLE","FACE 171 RUE DU TEMPLE - 75103",48.86485915584956,2.36000387255969,0,
4726931,,"TURBIGO - REPUBLIQUE","164-166 RUE DU TEMPLE - 75103",48.86625191048184,2.361462105708011,0,
4726932,,"REPUBLIQUE","9 PLACE DE LA REPUBLIQUE - 75103",48.866682718988855,2.3641868567643844,0,
4726929,,"ARTS ET METIERS","23-25 RUE REAUMUR - 75103",48.86519223447785,2.356938988179183,0,
4726928,,"REAUMUR - ARTS ET METIERS","37-39 RUE REAUMUR - 75103",48.865821809644764,2.353928649583883,0,
4726927,,"REAUMUR - SEBASTOPOL","61-63 RUE REAUMUR - 75102",48.86648726254369,2.350877379276764,0,
4726926,,"SENTIER","91 RUE REAUMUR - 75102",48.86740438643242,2.3465863945789227,0,
4726920,,"OPERA","3 R AUBER - 75109",48.87123321218385,2.3313418899103016,0,
4726921,,"OPERA","6 BOULEVARD DES CAPUCINES - 75109",48.87088277826318,2.333031287561144,0,
4726924,,"BOURSE","11 PLACE DE LA BOURSE - 75102",48.8686898950085,2.3406332542400126,0,
4726961,,"RICHELIEU - DROUOT","2 BOULEVARD DES ITALIENS - 75109",48.87195232806171,2.3392438053086133,0,
4726925,,"REAUMUR - MONTMARTRE","105 RUE REAUMUR - 75102",48.868123588566576,2.3432624809229616,0,
4726960,,"GRANDS BOULEVARDS","32 BOULEVARD POISSONNIERE - 75109",48.87153877146487,2.3433582449134955,0,
4726922,,"OPERA - 4 SEPTEMBRE","35 RUE DU 4 SEPTEMBRE - 75102",48.87010088424911,2.333140340403381,0,
4726923,,"RICHELIEU - 4 SEPTEMBRE","7 RUE DU 4 SEPTEMBRE - 75102",48.86917525585135,2.3381810732063615,0,
4726963,,"GARE SAINT-LAZARE.","9 RUE DU HAVRE - 75108",48.874917677011055,2.3265591254388367,0,
4726962,,"CHOISEUL","26 BOULEVARD DES ITALIENS - 75109",48.87143107549418,2.3362192580847188,0,
4726959,,"POISSONNIERE - BONNE NOUVELLE","4 BOULEVARD POISSONNIERE - 75109",48.87084646432337,2.3474861878041238,0,
4726916,,"HAVRE - HAUSSMANN","19 RUE AUBER - 75109",48.8733809275033,2.3274859090230406,0,
4726915,,"GARE SAINT-LAZARE","3 RUE INTERIEURE - 75108",48.87588827509644,2.326231921199729,0,
4726918,,"AUBER","FACE 8 RUE AUBER - 75109",48.872033003523995,2.3298976383299848,0,
4726917,,"HAVRE - HAUSSMANN","16-18 RUE AUBER - 75109",48.87351575263024,2.327676627244145,0,
4726919,,"AUBER","8 RUE AUBER - 75109",48.87219478360626,2.3300338573501684,0,
4726950,,"PASTEUR - WAGNER","32 BOULEVARD BEAUMARCHAIS - 75111",48.856022593043754,2.368566944738585,0,
4726914,,"GARE SAINT-LAZARE","RUE INTERIEURE - 75108",48.875618519669636,2.3248422186533686,0,
4726952,,"SAINT-CLAUDE","90 BOULEVARD BEAUMARCHAIS - 75111",48.85977057434427,2.367697467983941,0,
4726951,,"SAINT-GILLES - CHEMIN VERT","50 BOULEVARD BEAUMARCHAIS - 75111",48.857271920933975,2.368281673209091,0,
4726954,,"JEAN-PIERRE TIMBAUD","28 BOULEVARD DU TEMPLE - 75111",48.86497475517658,2.3657525342739234,0,
4726953,,"OBERKAMPF - FILLES DU CALVAIRE","20 BOULEVARD DES FILLES DU CALVAIRES - 75111",48.86197263246327,2.367126657199641,0,
4726956,,"LANCRY-SAINT MARTIN","FACE 15 BOULEVARD SAINT MARTIN - 75110",48.868409173153836,2.3599509373564977,0,
4726955,,"REPUBLIQUE - TEMPLE","50-52 BOULEVARD DU TEMPLE - 75111",48.86612529914724,2.3650720364493116,0,
4726958,,"PORTE SAINT-DENIS","12-14 BOULEVARD BONNE NOUVELLE - 75110",48.86990231844513,2.3520226585912565,0,
4726957,,"PORTE SAINT-MARTIN","20 BOULEVARD SAINT-MARTIN - 75110",48.8690030013526,2.356150280147278,0,
